[
    {
      "name": "Casa de campo",
      "description": "Una hermosa casa de campo con jardín y piscina.",
      "type": "Residencial",
      "address": "Calle Principal 123",
      "number": 123,
      "postal_code": "28001",
      "city": "Madrid",
      "state": "Comunidad de Madrid",
      "latitude": 40.4168,
      "longitude": -3.7038,
      "availability": 5,
      "total_bricks": 5
    },
    {
      "name": "Oficina central",
      "description": "Edificio moderno en el centro de la ciudad.",
      "type": "Comercial",
      "address": "Avenida Libertad 456",
      "number": 456,
      "postal_code": "08001",
      "city": "Barcelona",
      "state": "Cataluña",
      "latitude": 41.3851,
      "longitude": 2.1734,
      "availability": 4,
      "total_bricks": 4
    },
    {
      "name": "Apartamento en la playa",
      "description": "Acogedor apartamento con vistas al mar.",
      "type": "Residencial",
      "address": "Paseo Marítimo 789",
      "number": 789,
      "postal_code": "46001",
      "city": "Valencia",
      "state": "Comunidad Valenciana",
      "latitude": 39.4699,
      "longitude": -0.3763,
      "availability": 3,
      "total_bricks": 3
    },
    {
      "name": "Almacén industrial",
      "description": "Gran almacén para uso industrial.",
      "type": "Industrial",
      "address": "Calle Industria 101",
      "number": 101,
      "postal_code": "48001",
      "city": "Bilbao",
      "state": "País Vasco",
      "latitude": 43.2630,
      "longitude": -2.9350,
      "availability": 3,
      "total_bricks": 3
    },
    {
      "name": "Tienda de ropa",
      "description": "Tienda de moda en el centro comercial.",
      "type": "Comercial",
      "address": "Plaza Mayor 202",
      "number": 202,
      "postal_code": "41001",
      "city": "Sevilla",
      "state": "Andalucía",
      "latitude": 37.3891,
      "longitude": -5.9845,
      "availability": 4,
      "total_bricks": 4
    }
]